[
  {
    "company": "Photosnap",
    "tags": "[New!,Featured]",
    "title": "Senior Frontend Developer",
    "date": "1d ago",
    "hours": "Full Time",
    "location": "USA only",
    "requisites": "[Frontend,Senior,HTML,CSS,JavaScript]"
  },
  {
    "company": "Manage",
    "tags": "[New!,Featured]",
    "title": "Fullstack Developer",
    "date": "1d ago",
    "hours": "Part Time",
    "location": "Remote",
    "requisites": "[Fullstack,Midweight,Python,React]"
  },
  {
    "company": "Account",
    "tags": "[New!]",
    "title": "Junior Frontend Developer",
    "date": "2d ago",
    "hours": "Part Time",
    "location": "USA only",
    "requisites": "[Frontend,Junior,JavaScript,React,Sass]"
  },
  {
    "company": "MyHome",
    "tags": "[]",
    "title": "Junior Frontend Developer",
    "date": "5d ago",
    "hours": "Contract",
    "location": "USA only",
    "requisites": "[Frontend,Junior,CSS,JavaScript]"
  },
  {
    "company": "Loop Studios",
    "tags": "[]",
    "title": "Software Engineer",
    "date": "1w ago",
    "hours": "Full Time",
    "location": "Worldwide",
    "requisites": "[Fullstack,Midweight,JavaScript,Ruby,Sass]"
  },
  {
    "company": "FaceIt",
    "tags": "[]",
    "title": "Junior Backend Developer",
    "date": "2w ago",
    "hours": "Full Time",
    "location": "UK only",
    "requisites": "[Backend,Junior,Ruby,RoR]"
  },
  {
    "company": "Shortly",
    "tags": "[]",
    "title": "Junior Developer",
    "date": "2w ago",
    "hours": "Full Time",
    "location": "Worldwide",
    "requisites": "[Frontend,Junior,HTML,JavaScript,Sass]"
  },
  {
    "company": "Insure",
    "tags": "[]",
    "title": "Junior Frontend Developer",
    "date": "2w ago",
    "hours": "Full Time",
    "location": "USA only",
    "requisites": "[Frontend,Junior,JavaScript,Vue,Sass]"
  },
  {
    "company": "Eyecam Co.",
    "tags": "[]",
    "title": "Full Stack Engineer",
    "date": "3w ago",
    "hours": "Full Time",
    "location": "Worldwide",
    "requisites": "[Fullstack,Midweight,JavaScript,Python,Django]"
  },
  {
    "company": "The Air Filter Company",
    "tags": "[]",
    "title": "Front-end Dev",
    "date": "1mo ago",
    "hours": "Part Time",
    "location": "Worldwide",
    "requisites": "[Frontend,Junior,JavaScript,React,Sass]"
  }
]
